Vers 57
USE_SERIAL_FEEDBACK=false
DEVELOPMENT_MODE=false
USE_RMC_ONLY=false

$GPRMC,210239.000,A,4305.1625,N,07740.8511,W,0.01,145.90,020419,,,D*7F
$GPGGA,210239.200,4305.1625,N,07740.8511,W,2,09,1.12,159.0,M,-34.4,M,0000,0000*57
$GPRMC,210239.400,A,4305.1625,N,07740.8511,W,0.00,132.05,020419,,,D*76
$GPGGA,210239.600,4305.1625,N,07740.8511,W,2,09,1.12,159.0,M,-34.4,M,0000,0000*53
$GPRMC,210239.800,A,4305.1625,N,07740.8511,W,0.01,258.42,020419,,,D*77
$GPGGA,210240.000,4305.1625,N,07740.8511,W,2,09,1.12,159.0,M,-34.4,M,0000,0000*5B
$GPRMC,210240.200,A,4305.1625,N,07740.8511,W,0.00,230.88,020419,,,D*7A
$GPGGA,210240.400,4305.1625,N,07740.8511,W,2,09,1.12,159.0,M,-34.4,M,0000,0000*5F
$GPRMC,210240.600,A,4305.1625,N,07740.8511,W,0.01,169.36,020419,,,D*75
$GPGGA,210240.800,4305.1625,N,07740.8511,W,2,09,1.12,159.0,M,-34.4,M,0000,0000*53
$GPRMC,210241.000,A,4305.1625,N,07740.8511,W,0.01,188.03,020419,,,D*7B
$GPGGA,210241.200,4305.1625,N,07740.8511,W,2,09,1.12,159.0,M,-34.4,M,0000,0000*58
$GPRMC,210241.400,A,4305.1625,N,07740.8511,W,0.01,199.03,020419,,,D*7F
$GPGGA,210241.600,4305.1625,N,07740.8511,W,2,09,1.12,159.0,M,-34.4,M,0000,0000*5C
$GPRMC,210241.800,A,4305.1625,N,07740.8511,W,0.01,205.34,020419,,,D*71
$GPGGA,210242.000,4305.1625,N,07740.8511,W,2,09,1.12,159.0,M,-34.4,M,0000,0000*59
$GPRMC,210242.200,A,4305.1625,N,07740.8511,W,0.02,189.42,020419,,,D*7D
$GPGGA,210242.400,4305.1625,N,07740.8511,W,2,09,1.12,159.0,M,-34.4,M,0000,0000*5D
$GPRMC,210242.600,A,4305.1625,N,07740.8511,W,0.01,234.62,020419,,,D*7D
$GPGGA,210242.800,4305.1625,N,07740.8511,W,2,09,1.12,159.0,M,-34.4,M,0000,0000*51
$GPRMC,210243.000,A,4305.1625,N,07740.8511,W,0.00,188.22,020419,,,D*7B
$GPGGA,210243.200,4305.1625,N,07740.8511,W,2,09,1.12,159.0,M,-34.4,M,0000,0000*5A
$GPRMC,210243.400,A,4305.1625,N,07740.8511,W,0.01,261.72,020419,,,D*7F
$GPGGA,210243.600,4305.1625,N,07740.8511,W,2,09,1.12,159.0,M,-34.4,M,0000,0000*5E
$GPRMC,210243.800,A,4305.1625,N,07740.8511,W,0.01,226.83,020419,,,D*7E
$GPGGA,210244.000,4305.1625,N,07740.8511,W,2,09,1.12,159.0,M,-34.4,M,0000,0000*5F
$GPRMC,210244.200,A,4305.1625,N,07740.8511,W,0.01,287.31,020419,,,D*71
$GPGGA,210244.400,4305.1625,N,07740.8511,W,2,09,1.12,159.0,M,-34.4,M,0000,0000*5B
$GPRMC,210244.600,A,4305.1625,N,07740.8511,W,0.01,68.93,020419,,,D*4E
$GPGGA,210244.800,4305.1625,N,07740.8511,W,2,09,1.12,159.0,M,-34.4,M,0000,0000*57
$GPRMC,210245.000,A,4305.1625,N,07740.8511,W,0.01,149.04,020419,,,D*75
$GPGGA,210245.200,4305.1625,N,07740.8511,W,2,09,1.12,159.0,M,-34.4,M,0000,0000*5C
$GPRMC,210245.400,A,4305.1625,N,07740.8511,W,0.00,0.00,020419,,,D*78
$GPGGA,210245.600,4305.1625,N,07740.8511,W,2,09,1.12,159.0,M,-34.4,M,0000,0000*58
$GPRMC,210245.800,A,4305.1625,N,07740.8511,W,0.00,207.94,020419,,,D*7C
$GPGGA,210246.000,4305.1625,N,07740.8511,W,2,09,1.12,159.0,M,-34.4,M,0000,0000*5D
$GPRMC,210246.200,A,4305.1625,N,07740.8511,W,0.01,130.49,020419,,,D*73
$GPGGA,210246.400,4305.1625,N,07740.8511,W,2,09,1.12,159.0,M,-34.4,M,0000,0000*59
$GPRMC,210246.600,A,4305.1625,N,07740.8511,W,0.01,273.37,020419,,,D*7A
$GPGGA,210246.800,4305.1625,N,07740.8511,W,2,09,1.12,159.0,M,-34.4,M,0000,0000*55
$GPRMC,210247.000,A,4305.1625,N,07740.8511,W,0.00,44.61,020419,,,D*49
$GPGGA,210247.200,4305.1625,N,07740.8511,W,2,09,1.12,159.0,M,-34.4,M,0000,0000*5E
$GPRMC,210247.400,A,4305.1625,N,07740.8511,W,0.00,68.25,020419,,,D*43
$GPGGA,210247.600,4305.1625,N,07740.8511,W,2,09,1.12,159.0,M,-34.4,M,0000,0000*5A
$GPRMC,210247.800,A,4305.1625,N,07740.8511,W,0.01,220.02,020419,,,D*75
$GPGGA,210248.000,4305.1625,N,07740.8511,W,2,09,1.12,159.0,M,-34.4,M,0000,0000*53
$GPRMC,210248.200,A,4305.1625,N,07740.8511,W,0.00,306.48,020419,,,D*7A
$GPGGA,210248.400,4305.1625,N,07740.8511,W,2,09,1.12,159.0,M,-34.4,M,0000,0000*57
$GPRMC,210248.600,A,4305.1625,N,07740.8511,W,0.01,267.19,020419,,,D*7D
$GPGGA,210248.800,4305.1625,N,07740.8511,W,2,09,1.12,159.0,M,-34.4,M,0000,0000*5B
$GPRMC,210249.000,A,4305.1625,N,07740.8511,W,0.01,301.07,020419,,,D*74
$GPGGA,210249.200,4305.1625,N,07740.8511,W,2,09,1.12,159.0,M,-34.4,M,0000,0000*50
$GPRMC,210249.400,A,4305.1625,N,07740.8511,W,0.01,116.79,020419,,,D*7D
$GPGGA,210249.600,4305.1625,N,07740.8511,W,2,09,1.12,159.0,M,-34.4,M,0000,0000*54
$GPRMC,210249.800,A,4305.1625,N,07740.8511,W,0.01,127.68,020419,,,D*73
$GPGGA,210250.000,4305.1625,N,07740.8511,W,2,09,1.12,159.0,M,-34.4,M,0000,0000*5A
$GPRMC,210250.200,A,4305.1625,N,07740.8511,W,0.01,103.05,020419,,,D*7C
$GPGGA,210250.400,4305.1625,N,07740.8511,W,2,09,1.12,159.0,M,-34.4,M,0000,0000*5E
$GPRMC,210250.600,A,4305.1625,N,07740.8511,W,0.01,285.00,020419,,,D*70
$GPGGA,210250.800,4305.1625,N,07740.8511,W,2,09,1.12,159.0,M,-34.4,M,0000,0000*52
$GPRMC,210251.000,A,4305.1625,N,07740.8511,W,0.01,93.15,020419,,,D*46
$GPGGA,210251.200,4305.1625,N,07740.8511,W,2,09,1.12,159.0,M,-34.4,M,0000,0000*59
$GPRMC,210251.400,A,4305.1625,N,07740.8511,W,0.01,118.16,020419,,,D*73
$GPGGA,210251.600,4305.1625,N,07740.8511,W,2,09,1.12,159.0,M,-34.4,M,0000,0000*5D
$GPRMC,210251.800,A,4305.1625,N,07740.8511,W,0.00,0.00,020419,,,D*71
$GPGGA,210252.000,4305.1625,N,07740.8511,W,2,09,1.12,159.0,M,-34.4,M,0000,0000*58
$GPRMC,210252.200,A,4305.1625,N,07740.8511,W,0.01,140.93,020419,,,D*76
$GPGGA,210252.400,4305.1625,N,07740.8511,W,2,09,1.12,159.0,M,-34.4,M,0000,0000*5C
$GPRMC,210252.600,A,4305.1625,N,07740.8511,W,0.00,268.38,020419,,,D*7B
$GPGGA,210252.800,4305.1625,N,07740.8511,W,2,09,1.12,159.0,M,-34.4,M,0000,0000*50
$GPRMC,210253.000,A,4305.1625,N,07740.8511,W,0.00,153.55,020419,,,D*7C
$GPGGA,210253.200,4305.1625,N,07740.8511,W,2,09,1.12,159.0,M,-34.4,M,0000,0000*5B
$GPRMC,210253.400,A,4305.1625,N,07740.8511,W,0.01,18.61,020419,,,D*40
$GPGGA,210253.600,4305.1625,N,07740.8511,W,2,09,1.12,159.0,M,-34.4,M,0000,0000*5F
$GPRMC,210253.800,A,4305.1625,N,07740.8511,W,0.00,268.31,020419,,,D*7D
$GPGGA,210254.000,4305.1625,N,07740.8511,W,2,09,1.12,159.0,M,-34.4,M,0000,0000*5E
$GPRMC,210254.200,A,4305.1625,N,07740.8511,W,0.00,154.61,020419,,,D*79
$GPGGA,210254.400,4305.1625,N,07740.8511,W,2,09,1.12,159.0,M,-34.4,M,0000,0000*5A
$GPRMC,210254.600,A,4305.1625,N,07740.8511,W,0.00,206.34,020419,,,D*79
$GPGGA,210254.800,4305.1625,N,07740.8511,W,2,09,1.12,159.0,M,-34.4,M,0000,0000*56
$GPRMC,210255.000,A,4305.1625,N,07740.8511,W,0.00,114.34,020419,,,D*7E
$GPGGA,210255.200,4305.1625,N,07740.8511,W,2,09,1.12,159.0,M,-34.4,M,0000,0000*5D
$GPRMC,210255.400,A,4305.1625,N,07740.8511,W,0.00,261.12,020419,,,D*7F
$GPGGA,210255.600,4305.1625,N,07740.8511,W,2,09,1.12,159.0,M,-34.4,M,0000,0000*59
$GPRMC,210255.800,A,4305.1625,N,07740.8511,W,0.01,164.22,020419,,,D*77
$GPGGA,210256.000,4305.1625,N,07740.8511,W,2,09,1.12,159.0,M,-34.4,M,0000,0000*5C
$GPRMC,210256.200,A,4305.1625,N,07740.8511,W,0.01,26.38,020419,,,D*42
$GPGGA,210256.400,4305.1625,N,07740.8511,W,2,09,1.12,159.0,M,-34.4,M,0000,0000*58
$GPRMC,210256.600,A,4305.1625,N,07740.8511,W,0.00,166.74,020419,,,D*7A
$GPGGA,210256.800,4305.1625,N,07740.8511,W,2,09,1.12,159.0,M,-34.4,M,0000,0000*54
$GPRMC,210257.000,A,4305.1625,N,07740.8511,W,0.01,303.56,020419,,,D*7D
$GPGGA,210257.200,4305.1625,N,07740.8511,W,2,09,1.12,159.0,M,-34.4,M,0000,0000*5F
$GPRMC,210257.400,A,4305.1625,N,07740.8511,W,0.01,10.53,020419,,,D*4D
$GPGGA,210257.600,4305.1625,N,07740.8511,W,2,09,1.12,159.0,M,-34.4,M,0000,0000*5B
$GPRMC,210257.800,A,4305.1625,N,07740.8511,W,0.01,174.59,020419,,,D*78
$GPGGA,210258.000,4305.1625,N,07740.8511,W,2,09,1.12,159.0,M,-34.4,M,0000,0000*52
$GPRMC,210258.200,A,4305.1625,N,07740.8511,W,0.01,215.55,020419,,,D*75
$GPGGA,210258.400,4305.1625,N,07740.8511,W,2,09,1.12,159.0,M,-34.4,M,0000,0000*56
$GPRMC,210258.600,A,4305.1625,N,07740.8511,W,0.01,24.41,020419,,,D*44
$GPGGA,210258.800,4305.1625,N,07740.8511,W,2,09,1.12,159.0,M,-34.4,M,0000,0000*5A
$GPRMC,210259.000,A,4305.1625,N,07740.8511,W,0.00,131.28,020419,,,D*78
$GPGGA,210259.200,4305.1625,N,07740.8510,W,2,09,1.12,159.0,M,-34.4,M,0000,0000*50
$GPRMC,210259.400,A,4305.1625,N,07740.8510,W,0.01,140.55,020419,,,D*70
$GPGGA,210259.600,4305.1625,N,07740.8510,W,2,09,1.12,159.0,M,-34.4,M,0000,0000*54
$GPRMC,210259.800,A,4305.1625,N,07740.8510,W,0.00,96.44,020419,,,D*47
$GPGGA,210300.000,4305.1625,N,07740.8510,W,2,09,1.12,159.0,M,-34.4,M,0000,0000*5F
$GPRMC,210300.200,A,4305.1625,N,07740.8510,W,0.00,359.08,020419,,,D*78
$GPGGA,210300.400,4305.1625,N,07740.8510,W,2,09,1.12,159.0,M,-34.4,M,0000,0000*5B
$GPRMC,210300.600,A,4305.1625,N,07740.8510,W,0.00,312.07,020419,,,D*7C
$GPGGA,210300.800,4305.1625,N,07740.8510,W,2,09,1.12,159.0,M,-34.4,M,0000,0000*57
$GPRMC,210301.000,A,4305.1625,N,07740.8510,W,0.01,51.84,020419,,,D*45
$GPGGA,210301.200,4305.1625,N,07740.8510,W,2,09,1.12,159.0,M,-34.4,M,0000,0000*5C
$GPRMC,210301.400,A,4305.1625,N,07740.8510,W,0.01,75.62,020419,,,D*4F
$GPGGA,210301.600,4305.1625,N,07740.8510,W,2,09,1.12,159.0,M,-34.4,M,0000,0000*58
$GPRMC,210301.800,A,4305.1625,N,07740.8510,W,0.01,236.59,020419,,,D*7E
$GPGGA,210302.000,4305.1625,N,07740.8510,W,2,09,1.12,159.0,M,-34.4,M,0000,0000*5D
$GPRMC,210302.200,A,4305.1625,N,07740.8510,W,0.01,30.61,020419,,,D*48
$GPGGA,210302.400,4305.1625,N,07740.8510,W,2,09,1.12,159.0,M,-34.4,M,0000,0000*59
$GPRMC,210302.600,A,4305.1625,N,07740.8510,W,0.00,283.88,020419,,,D*70
$GPGGA,210302.800,4305.1625,N,07740.8510,W,2,09,1.12,159.1,M,-34.4,M,0000,0000*54
$GPRMC,210303.000,A,4305.1625,N,07740.8510,W,0.01,323.57,020419,,,D*7F
$GPGGA,210303.200,4305.1625,N,07740.8510,W,2,09,1.12,159.1,M,-34.4,M,0000,0000*5F
$GPRMC,210303.400,A,4305.1625,N,07740.8510,W,0.01,301.05,020419,,,D*7C
$GPGGA,210303.600,4305.1625,N,07740.8510,W,2,09,1.12,159.1,M,-34.4,M,0000,0000*5B
$GPRMC,210303.800,A,4305.1625,N,07740.8510,W,0.00,344.29,020419,,,D*7E
$GPGGA,210304.000,4305.1625,N,07740.8510,W,2,09,1.12,159.1,M,-34.4,M,0000,0000*5A
$GPRMC,210304.200,A,4305.1625,N,07740.8510,W,0.01,49.90,020419,,,D*4E
$GPGGA,210304.400,4305.1625,N,07740.8510,W,2,09,1.12,159.1,M,-34.4,M,0000,0000*5E
$GPRMC,210304.600,A,4305.1625,N,07740.8510,W,0.00,358.76,020419,,,D*70
$GPGGA,210304.800,4305.1625,N,07740.8510,W,2,09,1.12,159.1,M,-34.4,M,0000,0000*52
$GPRMC,210305.000,A,4305.1625,N,07740.8510,W,0.01,142.09,020419,,,D*77
$GPGGA,210305.200,4305.1625,N,07740.8510,W,2,09,1.12,159.1,M,-34.4,M,0000,0000*59
$GPRMC,210305.400,A,4305.1625,N,07740.8510,W,0.01,304.31,020419,,,D*78
$GPGGA,210305.600,4305.1625,N,07740.8510,W,2,09,1.12,159.1,M,-34.4,M,0000,0000*5D
$GPRMC,210305.800,A,4305.1625,N,07740.8510,W,0.00,308.02,020419,,,D*79
$GPGGA,210306.000,4305.1625,N,07740.8510,W,2,09,1.12,159.1,M,-34.4,M,0000,0000*58
$GPRMC,210306.200,A,4305.1625,N,07740.8510,W,0.00,80.76,020419,,,D*40
$GPGGA,210306.400,4305.1625,N,07740.8510,W,2,09,1.12,159.1,M,-34.4,M,0000,0000*5C
$GPRMC,210306.600,A,4305.1625,N,07740.8510,W,0.01,309.13,020419,,,D*74
$GPGGA,210306.800,4305.1625,N,07740.8510,W,2,09,1.12,159.1,M,-34.4,M,0000,0000*50
$GPRMC,210307.000,A,4305.1625,N,07740.8510,W,0.01,16.71,020419,,,D*4A
$GPGGA,210307.200,4305.1625,N,07740.8510,W,2,09,1.12,159.1,M,-34.4,M,0000,0000*5B
$GPRMC,210307.400,A,4305.1625,N,07740.8510,W,0.01,29.47,020419,,,D*47
$GPGGA,210307.600,4305.1625,N,07740.8510,W,2,09,1.12,159.1,M,-34.4,M,0000,0000*5F
$GPRMC,210307.800,A,4305.1625,N,07740.8510,W,0.05,19.63,020419,,,D*4A
$GPGGA,210308.000,4305.1625,N,07740.8510,W,2,09,1.12,159.1,M,-34.4,M,0000,0000*56
$GPRMC,210308.200,A,4305.1625,N,07740.8510,W,0.07,31.28,020419,,,D*48
$GPGGA,210308.400,4305.1625,N,07740.8510,W,2,09,1.12,159.1,M,-34.4,M,0000,0000*52
$GPRMC,210308.600,A,4305.1625,N,07740.8510,W,0.35,23.62,020419,,,D*40
$GPGGA,210308.800,4305.1625,N,07740.8510,W,2,09,1.04,159.1,M,-34.4,M,0000,0000*59
$GPRMC,210309.000,A,4305.1626,N,07740.8510,W,1.61,4.47,020419,,,D*76
$GPGGA,210309.200,4305.1627,N,07740.8510,W,2,09,1.12,159.0,M,-34.4,M,0000,0000*56
$GPRMC,210309.400,A,4305.1628,N,07740.8510,W,1.80,7.26,020419,,,D*77
$GPGGA,210309.600,4305.1629,N,07740.8510,W,2,09,1.12,159.0,M,-34.4,M,0000,0000*5C
$GPRMC,210309.800,A,4305.1631,N,07740.8510,W,2.14,11.22,020419,,,D*4E
$GPGGA,210310.000,4305.1632,N,07740.8509,W,2,09,1.12,159.0,M,-34.4,M,0000,0000*50
$GPRMC,210310.200,A,4305.1633,N,07740.8509,W,2.44,18.08,020419,,,D*42
$GPGGA,210310.400,4305.1634,N,07740.8508,W,2,09,1.04,158.9,M,-34.4,M,0000,0000*5C
$GPRMC,210310.600,A,4305.1636,N,07740.8508,W,2.48,20.86,020419,,,D*43
$GPGGA,210310.800,4305.1637,N,07740.8507,W,2,09,1.04,158.9,M,-34.4,M,0000,0000*5C
$GPRMC,210311.000,A,4305.1638,N,07740.8506,W,2.75,24.88,020419,,,D*40
$GPGGA,210311.200,4305.1640,N,07740.8505,W,2,09,1.04,158.8,M,-34.4,M,0000,0000*54
$GPRMC,210311.400,A,4305.1641,N,07740.8504,W,2.86,29.55,020419,,,D*49
$GPGGA,210311.600,4305.1643,N,07740.8503,W,2,09,1.04,158.8,M,-34.4,M,0000,0000*55
$GPRMC,210311.800,A,4305.1644,N,07740.8502,W,2.73,37.51,020419,,,D*47
$GPGGA,210312.000,4305.1645,N,07740.8501,W,2,09,1.04,158.8,M,-34.4,M,0000,0000*54
$GPRMC,210312.200,A,4305.1647,N,07740.8499,W,2.59,40.51,020419,,,D*46
$GPGGA,210312.400,4305.1648,N,07740.8498,W,2,09,1.04,158.8,M,-34.4,M,0000,0000*5C
$GPRMC,210312.600,A,4305.1649,N,07740.8496,W,2.73,46.18,020419,,,D*40
$GPGGA,210312.800,4305.1650,N,07740.8494,W,2,09,1.04,158.8,M,-34.4,M,0000,0000*55
$GPRMC,210313.000,A,4305.1651,N,07740.8493,W,2.30,57.41,020419,,,D*40
$GPGGA,210313.200,4305.1651,N,07740.8491,W,2,09,1.04,158.8,M,-34.4,M,0000,0000*5A
$GPRMC,210313.400,A,4305.1652,N,07740.8490,W,1.91,52.32,020419,,,D*4D
$GPGGA,210313.600,4305.1653,N,07740.8489,W,2,09,1.04,158.7,M,-34.4,M,0000,0000*5A
$GPRMC,210313.800,A,4305.1653,N,07740.8489,W,0.64,30.95,020419,,,D*4A
$GPGGA,210314.000,4305.1653,N,07740.8490,W,2,09,1.04,158.7,M,-34.4,M,0000,0000*53
$GPRMC,210314.200,A,4305.1653,N,07740.8491,W,0.41,287.84,020419,,,D*77
$GPGGA,210314.400,4305.1652,N,07740.8493,W,2,09,1.04,158.7,M,-34.4,M,0000,0000*55
$GPRMC,210314.600,A,4305.1651,N,07740.8496,W,1.71,254.75,020419,,,D*74
$GPGGA,210314.800,4305.1650,N,07740.8499,W,2,09,1.04,158.7,M,-34.4,M,0000,0000*51
$GPRMC,210315.000,A,4305.1649,N,07740.8503,W,4.82,255.87,020419,,,D*72
$GPGGA,210315.200,4305.1649,N,07740.8508,W,2,09,1.12,158.7,M,-34.4,M,0000,0000*5C
$GPRMC,210315.400,A,4305.1648,N,07740.8514,W,7.75,257.64,020419,,,D*75
$GPGGA,210315.600,4305.1647,N,07740.8521,W,2,09,1.12,158.7,M,-34.4,M,0000,0000*5D
$GPRMC,210315.800,A,4305.1647,N,07740.8529,W,10.56,263.86,020419,,,D*44
$GPGGA,210316.000,4305.1647,N,07740.8538,W,2,09,1.12,158.7,M,-34.4,M,0000,0000*50
$GPRMC,210316.200,A,4305.1647,N,07740.8547,W,12.00,267.01,020419,,,D*4F
$GPGGA,210316.400,4305.1647,N,07740.8558,W,2,09,1.04,158.6,M,-34.4,M,0000,0000*54
$GPRMC,210316.600,A,4305.1647,N,07740.8569,W,13.45,270.31,020419,,,D*42
$GPGGA,210316.800,4305.1648,N,07740.8581,W,2,09,1.04,158.6,M,-34.4,M,0000,0000*53
$GPRMC,210317.000,A,4305.1648,N,07740.8592,W,14.74,272.96,020419,,,D*44
$GPGGA,210317.200,4305.1648,N,07740.8604,W,2,09,1.04,158.6,M,-34.4,M,0000,0000*56
$GPRMC,210317.400,A,4305.1648,N,07740.8615,W,14.86,273.51,020419,,,D*4B
$GPGGA,210317.600,4305.1649,N,07740.8627,W,2,09,1.04,158.6,M,-34.4,M,0000,0000*52
$GPRMC,210317.800,A,4305.1649,N,07740.8638,W,14.83,273.85,020419,,,D*45
$GPGGA,210318.000,4305.1650,N,07740.8650,W,2,09,1.12,158.6,M,-34.4,M,0000,0000*54
$GPRMC,210318.200,A,4305.1650,N,07740.8661,W,14.79,272.77,020419,,,D*4D
$GPGGA,210318.400,4305.1650,N,07740.8673,W,2,09,1.04,158.6,M,-34.4,M,0000,0000*56
$GPRMC,210318.600,A,4305.1650,N,07740.8685,W,14.73,272.63,020419,,,D*4C
$GPGGA,210318.800,4305.1651,N,07740.8696,W,2,09,1.04,158.6,M,-34.4,M,0000,0000*50
$GPRMC,210319.000,A,4305.1651,N,07740.8707,W,14.22,271.73,020419,,,D*47
$GPGGA,210319.200,4305.1651,N,07740.8717,W,2,09,1.12,158.6,M,-34.4,M,0000,0000*54
$GPRMC,210319.400,A,4305.1651,N,07740.8727,W,12.97,270.96,020419,,,D*43
$GPGGA,210319.600,4305.1650,N,07740.8737,W,2,09,1.12,158.5,M,-34.4,M,0000,0000*50
$GPRMC,210319.800,A,4305.1650,N,07740.8746,W,11.34,270.86,020419,,,D*42
$GPGGA,210320.000,4305.1650,N,07740.8754,W,2,09,1.12,158.6,M,-34.4,M,0000,0000*5A
$GPRMC,210320.200,A,4305.1650,N,07740.8762,W,9.37,269.64,020419,,,D*7A
$GPGGA,210320.400,4305.1650,N,07740.8769,W,2,09,1.12,158.5,M,-34.4,M,0000,0000*53
$GPRMC,210320.600,A,4305.1649,N,07740.8775,W,7.82,270.85,020419,,,D*77
$GPGGA,210320.800,4305.1649,N,07740.8781,W,2,09,1.12,158.5,M,-34.4,M,0000,0000*51
$GPRMC,210321.000,A,4305.1649,N,07740.8786,W,6.89,270.65,020419,,,D*78
$GPGGA,210321.200,4305.1649,N,07740.8791,W,2,08,1.24,158.5,M,-34.4,M,0000,0000*5F
$GPRMC,210321.400,A,4305.1649,N,07740.8796,W,6.68,273.92,020419,,,D*79
$GPGGA,210321.600,4305.1650,N,07740.8801,W,2,09,1.12,158.6,M,-34.4,M,0000,0000*52
$GPRMC,210321.800,A,4305.1650,N,07740.8806,W,7.05,278.79,020419,,,D*7F
$GPGGA,210322.000,4305.1651,N,07740.8811,W,2,09,1.12,158.6,M,-34.4,M,0000,0000*57
$GPRMC,210322.200,A,4305.1652,N,07740.8817,W,7.76,286.97,020419,,,D*71
$GPGGA,210322.400,4305.1652,N,07740.8822,W,2,09,1.12,158.5,M,-34.4,M,0000,0000*53
$GPRMC,210322.600,A,4305.1654,N,07740.8828,W,8.89,299.94,020419,,,D*7D
$GPGGA,210322.800,4305.1655,N,07740.8834,W,2,09,1.12,158.5,M,-34.4,M,0000,0000*5F
$GPRMC,210323.000,A,4305.1658,N,07740.8840,W,9.64,310.86,020419,,,D*79
$GPGGA,210323.200,4305.1662,N,07740.8844,W,2,09,1.12,158.5,M,-34.4,M,0000,0000*57
$GPRMC,210323.400,A,4305.1666,N,07740.8849,W,10.34,322.68,020419,,,D*45
$GPGGA,210323.600,4305.1670,N,07740.8853,W,2,09,1.12,158.5,M,-34.4,M,0000,0000*56
$GPRMC,210323.800,A,4305.1675,N,07740.8856,W,11.42,337.41,020419,,,D*4A
$GPGGA,210324.000,4305.1681,N,07740.8859,W,2,09,1.12,158.3,M,-34.4,M,0000,0000*55
$GPRMC,210324.200,A,4305.1687,N,07740.8861,W,12.72,347.47,020419,,,D*4F
$GPGGA,210324.400,4305.1694,N,07740.8863,W,2,09,1.12,158.1,M,-34.4,M,0000,0000*5E
$GPRMC,210324.600,A,4305.1702,N,07740.8863,W,14.07,356.47,020419,,,D*41
$GPGGA,210324.800,4305.1710,N,07740.8863,W,2,09,1.12,158.0,M,-34.4,M,0000,0000*5E
$GPRMC,210325.000,A,4305.1718,N,07740.8863,W,15.55,359.33,020419,,,D*47
$GPGGA,210325.200,4305.1727,N,07740.8864,W,2,09,1.12,157.7,M,-34.4,M,0000,0000*5E
$GPRMC,210325.400,A,4305.1736,N,07740.8864,W,16.85,0.66,020419,,,D*49
$GPGGA,210325.600,4305.1745,N,07740.8864,W,2,09,1.12,157.4,M,-34.4,M,0000,0000*5D
$GPRMC,210325.800,A,4305.1755,N,07740.8864,W,18.48,1.59,020419,,,D*42
$GPGGA,210326.000,4305.1766,N,07740.8864,W,2,09,1.12,157.2,M,-34.4,M,0000,0000*5F
$GPRMC,210326.200,A,4305.1776,N,07740.8864,W,19.89,2.08,020419,,,D*41
$GPGGA,210326.400,4305.1787,N,07740.8864,W,2,09,1.12,157.1,M,-34.4,M,0000,0000*57
$GPRMC,210326.600,A,4305.1799,N,07740.8864,W,21.20,1.72,020419,,,D*42
$GPGGA,210326.800,4305.1811,N,07740.8864,W,2,09,1.12,156.8,M,-34.4,M,0000,0000*53
$GPRMC,210327.000,A,4305.1823,N,07740.8864,W,22.30,1.40,020419,,,D*48
$GPGGA,210327.200,4305.1836,N,07740.8864,W,2,09,1.12,156.5,M,-34.4,M,0000,0000*50
$GPRMC,210327.400,A,4305.1848,N,07740.8865,W,23.21,0.77,020419,,,D*44
$GPGGA,210327.600,4305.1862,N,07740.8865,W,2,09,1.12,156.3,M,-34.4,M,0000,0000*52
$GPRMC,210327.800,A,4305.1875,N,07740.8865,W,24.38,0.44,020419,,,D*49
$GPGGA,210328.000,4305.1889,N,07740.8865,W,2,09,1.12,156.0,M,-34.4,M,0000,0000*5D
$GPRMC,210328.200,A,4305.1903,N,07740.8865,W,25.02,359.86,020419,,,D*45
$GPGGA,210328.400,4305.1917,N,07740.8865,W,2,09,1.12,155.8,M,-34.4,M,0000,0000*54
$GPRMC,210328.600,A,4305.1932,N,07740.8866,W,25.91,359.16,020419,,,D*43
$GPGGA,210328.800,4305.1946,N,07740.8866,W,2,09,1.12,155.5,M,-34.4,M,0000,0000*52
$GPRMC,210329.000,A,4305.1961,N,07740.8867,W,26.49,358.64,020419,,,D*41
$GPGGA,210329.200,4305.1976,N,07740.8867,W,2,09,1.12,155.2,M,-34.4,M,0000,0000*5C
$GPRMC,210329.400,A,4305.1992,N,07740.8868,W,26.94,358.42,020419,,,D*42
$GPGGA,210329.600,4305.2007,N,07740.8869,W,2,09,1.12,154.9,M,-34.4,M,0000,0000*50
$GPRMC,210329.800,A,4305.2023,N,07740.8869,W,27.76,358.70,020419,,,D*43
$GPGGA,210330.000,4305.2039,N,07740.8870,W,2,09,1.12,154.6,M,-34.4,M,0000,0000*54
$GPRMC,210330.200,A,4305.2055,N,07740.8871,W,28.19,357.81,020419,,,D*4E
$GPGGA,210330.400,4305.2070,N,07740.8872,W,2,08,1.36,154.3,M,-34.4,M,0000,0000*5D
$GPRMC,210330.600,A,4305.2086,N,07740.8873,W,28.15,357.19,020419,,,D*4B
$GPGGA,210330.800,4305.2102,N,07740.8874,W,2,08,1.36,154.1,M,-34.4,M,0000,0000*51
$GPRMC,210331.000,A,4305.2118,N,07740.8876,W,28.10,356.63,020419,,,D*46
$GPGGA,210331.200,4305.2133,N,07740.8877,W,2,08,1.36,153.9,M,-34.4,M,0000,0000*54
$GPRMC,210331.400,A,4305.2149,N,07740.8879,W,27.92,355.83,020419,,,D*41
$GPGGA,210331.600,4305.2164,N,07740.8880,W,2,08,1.36,153.7,M,-34.4,M,0000,0000*54
$GPRMC,210331.800,A,4305.2179,N,07740.8882,W,26.87,354.59,020419,,,D*49
$GPGGA,210332.000,4305.2194,N,07740.8884,W,2,08,1.36,153.5,M,-34.4,M,0000,0000*58
$GPRMC,210332.200,A,4305.2209,N,07740.8887,W,26.15,353.15,020419,,,D*45
$GPGGA,210332.400,4305.2223,N,07740.8890,W,2,09,1.12,153.2,M,-34.4,M,0000,0000*56
$GPRMC,210332.600,A,4305.2237,N,07740.8892,W,24.38,351.96,020419,,,D*4C
$GPGGA,210332.800,4305.2251,N,07740.8895,W,2,09,1.12,153.1,M,-34.4,M,0000,0000*59
$GPRMC,210333.000,A,4305.2264,N,07740.8898,W,22.58,351.43,020419,,,D*4F
$GPGGA,210333.200,4305.2276,N,07740.8900,W,2,09,1.12,152.9,M,-34.4,M,0000,0000*53
$GPRMC,210333.400,A,4305.2287,N,07740.8903,W,20.15,350.62,020419,,,D*4C
$GPGGA,210333.600,4305.2298,N,07740.8906,W,2,09,1.12,152.8,M,-34.4,M,0000,0000*50
$GPRMC,210333.800,A,4305.2308,N,07740.8908,W,17.57,350.60,020419,,,D*4D
$GPGGA,210334.000,4305.2318,N,07740.8910,W,2,09,1.12,152.7,M,-34.4,M,0000,0000*50
$GPRMC,210334.200,A,4305.2327,N,07740.8913,W,15.19,350.84,020419,,,D*45
$GPGGA,210334.400,4305.2335,N,07740.8915,W,2,09,1.12,152.6,M,-34.4,M,0000,0000*5F
$GPRMC,210334.600,A,4305.2343,N,07740.8917,W,12.74,351.89,020419,,,D*47
$GPGGA,210334.800,4305.2350,N,07740.8918,W,2,09,1.12,152.6,M,-34.4,M,0000,0000*5D
$GPRMC,210335.000,A,4305.2356,N,07740.8920,W,9.80,353.81,020419,,,D*7B
$GPGGA,210335.200,4305.2361,N,07740.8920,W,2,09,1.12,152.6,M,-34.4,M,0000,0000*5F
$GPRMC,210335.400,A,4305.2365,N,07740.8921,W,6.93,357.79,020419,,,D*70
$GPGGA,210335.600,4305.2369,N,07740.8921,W,2,09,1.12,152.6,M,-34.4,M,0000,0000*52
$GPRMC,210335.800,A,4305.2372,N,07740.8921,W,4.13,359.53,020419,,,D*76
$GPGGA,210336.000,4305.2374,N,07740.8921,W,2,09,1.12,152.6,M,-34.4,M,0000,0000*5B
$GPRMC,210336.200,A,4305.2376,N,07740.8921,W,3.34,358.16,020419,,,D*79
$GPGGA,210336.400,4305.2377,N,07740.8922,W,2,09,1.12,152.6,M,-34.4,M,0000,0000*5F
$GPRMC,210336.600,A,4305.2379,N,07740.8922,W,3.12,350.89,020419,,,D*7B
$GPGGA,210336.800,4305.2381,N,07740.8923,W,2,09,1.12,152.5,M,-34.4,M,0000,0000*58
$GPRMC,210337.000,A,4305.2382,N,07740.8923,W,3.13,352.89,020419,,,D*7A
$GPGGA,210337.200,4305.2384,N,07740.8924,W,2,09,1.12,152.5,M,-34.4,M,0000,0000*51
$GPRMC,210337.400,A,4305.2387,N,07740.8923,W,3.66,3.36,020419,,,D*7A
$GPGGA,210337.600,4305.2389,N,07740.8923,W,2,09,1.12,152.5,M,-34.4,M,0000,0000*5F
$GPRMC,210337.800,A,4305.2392,N,07740.8922,W,4.85,14.32,020419,,,D*4B
$GPGGA,210338.000,4305.2396,N,07740.8920,W,2,09,1.12,152.4,M,-34.4,M,0000,0000*5A
$GPRMC,210338.200,A,4305.2400,N,07740.8919,W,6.56,19.66,020419,,,D*4A
$GPGGA,210338.400,4305.2405,N,07740.8916,W,2,09,1.04,152.4,M,-34.4,M,0000,0000*51
$GPRMC,210338.600,A,4305.2410,N,07740.8913,W,9.45,28.24,020419,,,D*4C
$GPGGA,210338.800,4305.2415,N,07740.8909,W,2,09,1.04,152.4,M,-34.4,M,0000,0000*52
$GPRMC,210339.000,A,4305.2419,N,07740.8904,W,10.14,36.43,020419,,,D*76
$GPGGA,210339.200,4305.2424,N,07740.8899,W,2,09,1.04,152.4,M,-34.4,M,0000,0000*53
$GPRMC,210339.400,A,4305.2429,N,07740.8892,W,11.24,45.85,020419,,,D*73
$GPGGA,210339.600,4305.2435,N,07740.8883,W,2,09,1.04,152.4,M,-34.4,M,0000,0000*5C
$GPRMC,210339.800,A,4305.2441,N,07740.8875,W,13.49,49.00,020419,,,D*70
$GPGGA,210340.000,4305.2446,N,07740.8867,W,2,09,1.04,152.4,M,-34.4,M,0000,0000*5A
$GPRMC,210340.200,A,4305.2451,N,07740.8857,W,14.45,54.24,020419,,,D*74
$GPGGA,210340.400,4305.2456,N,07740.8847,W,2,08,1.08,152.4,M,-34.4,M,0000,0000*50
$GPRMC,210340.600,A,4305.2464,N,07740.8827,W,18.18,60.47,020419,,,D*77
$GPGGA,210340.800,4305.2471,N,07740.8811,W,2,09,1.04,152.4,M,-34.4,M,0000,0000*57
$GPRMC,210341.000,A,4305.2477,N,07740.8795,W,21.60,64.47,020419,,,D*75
$GPGGA,210341.200,4305.2483,N,07740.8778,W,2,09,1.04,152.4,M,-34.4,M,0000,0000*51
$GPRMC,210341.400,A,4305.2490,N,07740.8760,W,22.72,65.87,020419,,,D*7F
$GPGGA,210341.600,4305.2497,N,07740.8741,W,2,07,1.39,152.5,M,-34.4,M,0000,0000*5B
$GPRMC,210341.800,A,4305.2503,N,07740.8721,W,23.93,66.86,020419,,,D*71
$GPGGA,210342.000,4305.2509,N,07740.8701,W,2,08,1.21,152.4,M,-34.4,M,0000,0000*5B
$GPRMC,210342.200,A,4305.2516,N,07740.8680,W,24.90,67.98,020419,,,D*7C
$GPGGA,210342.400,4305.2522,N,07740.8658,W,2,08,1.21,152.4,M,-34.4,M,0000,0000*5B
$GPRMC,210342.600,A,4305.2523,N,07740.8633,W,26.63,73.99,020419,,,D*7C
$GPGGA,210342.800,4305.2526,N,07740.8610,W,2,08,1.21,152.3,M,-34.4,M,0000,0000*58
$GPRMC,210343.000,A,4305.2530,N,07740.8587,W,27.52,77.06,020419,,,D*74
$GPGGA,210343.200,4305.2533,N,07740.8564,W,2,08,1.21,152.2,M,-34.4,M,0000,0000*56
$GPRMC,210343.400,A,4305.2537,N,07740.8541,W,28.11,78.19,020419,,,D*74
$GPGGA,210343.600,4305.2540,N,07740.8518,W,2,08,1.21,152.1,M,-34.4,M,0000,0000*5E
$GPRMC,210343.800,A,4305.2544,N,07740.8495,W,28.26,78.53,020419,,,D*7E
$GPGGA,210344.000,4305.2548,N,07740.8472,W,2,09,1.04,152.1,M,-34.4,M,0000,0000*5C
$GPRMC,210344.200,A,4305.2551,N,07740.8450,W,28.28,78.45,020419,,,D*77
$GPGGA,210344.400,4305.2555,N,07740.8428,W,2,09,1.04,152.0,M,-34.4,M,0000,0000*5A
$GPRMC,210344.600,A,4305.2558,N,07740.8405,W,27.83,78.71,020419,,,D*73
$GPGGA,210344.800,4305.2561,N,07740.8384,W,2,09,1.04,152.0,M,-34.4,M,0000,0000*50
$GPRMC,210345.000,A,4305.2563,N,07740.8363,W,26.29,80.40,020419,,,D*7F
$GPGGA,210345.200,4305.2565,N,07740.8342,W,2,09,1.04,151.9,M,-34.4,M,0000,0000*5F
$GPRMC,210345.400,A,4305.2567,N,07740.8321,W,26.26,81.45,020419,,,D*72
$GPGGA,210345.600,4305.2569,N,07740.8300,W,2,09,1.04,151.9,M,-34.4,M,0000,0000*51
$GPRMC,210345.800,A,4305.2570,N,07740.8279,W,25.91,82.15,020419,,,D*7D
$GPGGA,210346.000,4305.2572,N,07740.8259,W,2,09,1.04,151.8,M,-34.4,M,0000,0000*52
$GPRMC,210346.200,A,4305.2574,N,07740.8239,W,25.76,82.69,020419,,,D*76
$GPGGA,210346.400,4305.2576,N,07740.8219,W,2,09,1.04,151.8,M,-34.4,M,0000,0000*56
$GPRMC,210346.600,A,4305.2578,N,07740.8198,W,25.60,83.27,020419,,,D*7A
$GPGGA,210346.800,4305.2579,N,07740.8178,W,2,09,1.04,151.8,M,-34.4,M,0000,0000*51
$GPRMC,210347.000,A,4305.2580,N,07740.8158,W,25.51,83.53,020419,,,D*77
$GPGGA,210347.200,4305.2582,N,07740.8138,W,2,09,1.04,151.8,M,-34.4,M,0000,0000*5A
$GPRMC,210347.400,A,4305.2583,N,07740.8119,W,25.05,84.09,020419,,,D*7C
$GPGGA,210347.600,4305.2584,N,07740.8100,W,2,09,1.04,151.8,M,-34.4,M,0000,0000*53
$GPRMC,210347.800,A,4305.2586,N,07740.8080,W,24.92,84.59,020419,,,D*7E
$GPGGA,210348.000,4305.2587,N,07740.8061,W,2,09,1.04,151.8,M,-34.4,M,0000,0000*5F
$GPRMC,210348.200,A,4305.2588,N,07740.8042,W,24.58,84.84,020419,,,D*7D
$GPGGA,210348.400,4305.2589,N,07740.8024,W,2,09,1.04,151.8,M,-34.4,M,0000,0000*54
$GPRMC,210348.600,A,4305.2590,N,07740.8005,W,24.32,85.22,020419,,,D*72
$GPGGA,210348.800,4305.2591,N,07740.7986,W,2,09,1.12,151.8,M,-34.4,M,0000,0000*58
$GPRMC,210349.000,A,4305.2592,N,07740.7967,W,23.58,85.39,020419,,,D*74
$GPGGA,210349.200,4305.2593,N,07740.7950,W,2,08,1.36,151.9,M,-34.4,M,0000,0000*5C
$GPRMC,210349.400,A,4305.2594,N,07740.7932,W,22.45,85.80,020419,,,D*79
$GPGGA,210349.600,4305.2595,N,07740.7915,W,2,09,1.12,151.9,M,-34.4,M,0000,0000*58
$GPRMC,210349.800,A,4305.2596,N,07740.7899,W,21.00,86.19,020419,,,D*76
$GPGGA,210350.000,4305.2597,N,07740.7883,W,2,09,1.12,151.9,M,-34.4,M,0000,0000*5A
$GPRMC,210350.200,A,4305.2598,N,07740.7868,W,19.37,86.54,020419,,,D*72
$GPGGA,210350.400,4305.2598,N,07740.7853,W,2,09,1.12,151.9,M,-34.4,M,0000,0000*5C
$GPRMC,210350.600,A,4305.2599,N,07740.7839,W,17.68,87.03,020419,,,D*74
$GPGGA,210350.800,4305.2599,N,07740.7825,W,2,09,1.12,151.9,M,-34.4,M,0000,0000*50
$GPRMC,210351.000,A,4305.2600,N,07740.7812,W,16.29,87.45,020419,,,D*7F
$GPGGA,210351.200,4305.2601,N,07740.7800,W,2,09,1.12,151.9,M,-34.4,M,0000,0000*5E
$GPRMC,210351.400,A,4305.2602,N,07740.7787,W,14.83,87.58,020419,,,D*74
$GPGGA,210351.600,4305.2602,N,07740.7774,W,2,09,1.12,152.0,M,-34.4,M,0000,0000*5F
$GPRMC,210351.800,A,4305.2602,N,07740.7763,W,13.32,88.17,020419,,,D*7B
$GPGGA,210352.000,4305.2602,N,07740.7752,W,2,09,1.12,152.0,M,-34.4,M,0000,0000*5E
$GPRMC,210352.200,A,4305.2601,N,07740.7742,W,11.40,88.52,020419,,,D*74
$GPGGA,210352.400,4305.2601,N,07740.7734,W,2,09,1.12,152.1,M,-34.4,M,0000,0000*58
$GPRMC,210352.600,A,4305.2601,N,07740.7726,W,9.65,88.11,020419,,,D*4B
$GPGGA,210352.800,4305.2601,N,07740.7719,W,2,09,1.12,152.1,M,-34.4,M,0000,0000*5B
$GPRMC,210353.000,A,4305.2601,N,07740.7712,W,8.35,89.01,020419,,,D*4F
$GPGGA,210353.200,4305.2601,N,07740.7707,W,2,09,1.12,152.1,M,-34.4,M,0000,0000*5F
$GPRMC,210353.400,A,4305.2601,N,07740.7701,W,7.09,89.39,020419,,,D*42
$GPGGA,210353.600,4305.2601,N,07740.7696,W,2,09,1.12,152.2,M,-34.4,M,0000,0000*51
$GPRMC,210353.800,A,4305.2600,N,07740.7691,W,5.80,88.98,020419,,,D*4E
$GPGGA,210354.000,4305.2600,N,07740.7687,W,2,09,1.12,152.2,M,-34.4,M,0000,0000*51
$GPRMC,210354.200,A,4305.2599,N,07740.7683,W,4.60,88.10,020419,,,D*4C
$GPGGA,210354.400,4305.2599,N,07740.7680,W,2,09,1.12,152.2,M,-34.4,M,0000,0000*51
$GPRMC,210354.600,A,4305.2599,N,07740.7678,W,3.65,88.13,020419,,,D*4D
$GPGGA,210354.800,4305.2599,N,07740.7675,W,2,09,1.04,152.2,M,-34.4,M,0000,0000*50
$GPRMC,210355.000,A,4305.2598,N,07740.7673,W,2.82,88.44,020419,,,D*4A
$GPGGA,210355.200,4305.2598,N,07740.7671,W,2,09,1.04,152.1,M,-34.4,M,0000,0000*5D
$GPRMC,210355.400,A,4305.2598,N,07740.7670,W,2.13,88.44,020419,,,D*45
$GPGGA,210355.600,4305.2598,N,07740.7668,W,2,09,1.04,152.2,M,-34.4,M,0000,0000*52
$GPRMC,210355.800,A,4305.2597,N,07740.7667,W,1.29,88.44,020419,,,D*4A
$GPGGA,210356.000,4305.2597,N,07740.7667,W,2,09,1.04,152.2,M,-34.4,M,0000,0000*57
$GPRMC,210356.200,A,4305.2596,N,07740.7667,W,0.45,88.44,020419,,,D*49
$GPGGA,210356.400,4305.2596,N,07740.7667,W,2,09,1.04,152.2,M,-34.4,M,0000,0000*52
$GPRMC,210356.600,A,4305.2596,N,07740.7667,W,0.11,88.44,020419,,,D*4C
$GPGGA,210356.800,4305.2595,N,07740.7667,W,2,09,1.04,152.2,M,-34.4,M,0000,0000*5D
$GPRMC,210357.000,A,4305.2595,N,07740.7667,W,0.05,88.44,020419,,,D*4D
$GPGGA,210357.200,4305.2595,N,07740.7667,W,2,09,1.04,152.3,M,-34.4,M,0000,0000*57
$GPRMC,210357.400,A,4305.2594,N,07740.7667,W,0.03,88.44,020419,,,D*4E
$GPGGA,210357.600,4305.2594,N,07740.7667,W,2,09,1.12,152.3,M,-34.4,M,0000,0000*55
$GPRMC,210357.800,A,4305.2594,N,07740.7667,W,0.01,88.44,020419,,,D*40
$GPGGA,210358.000,4305.2594,N,07740.7667,W,2,09,1.04,152.3,M,-34.4,M,0000,0000*5B
$GPRMC,210358.200,A,4305.2594,N,07740.7667,W,0.38,93.57,020419,,,D*47
$GPGGA,210358.400,4305.2594,N,07740.7667,W,2,09,1.04,152.3,M,-34.4,M,0000,0000*5F
$GPRMC,210358.600,A,4305.2593,N,07740.7666,W,1.89,89.98,020419,,,D*46
$GPGGA,210358.800,4305.2593,N,07740.7664,W,2,09,1.04,152.3,M,-34.4,M,0000,0000*57
$GPRMC,210359.000,A,4305.2593,N,07740.7662,W,3.11,88.07,020419,,,D*41
$GPGGA,210359.200,4305.2593,N,07740.7660,W,2,09,1.04,152.4,M,-34.4,M,0000,0000*5F
$GPRMC,210359.400,A,4305.2593,N,07740.7657,W,3.75,88.66,020419,,,D*46
$GPGGA,210359.600,4305.2593,N,07740.7654,W,2,09,1.04,152.4,M,-34.4,M,0000,0000*5C
$GPRMC,210359.800,A,4305.2593,N,07740.7651,W,3.85,90.25,020419,,,D*4D
$GPGGA,210400.000,4305.2593,N,07740.7648,W,2,09,1.12,152.4,M,-34.4,M,0000,0000*5B
$GPRMC,210400.200,A,4305.2593,N,07740.7645,W,3.84,88.99,020419,,,D*46
$GPGGA,210400.400,4305.2593,N,07740.7642,W,2,09,1.04,152.4,M,-34.4,M,0000,0000*52
$GPRMC,210400.600,A,4305.2592,N,07740.7639,W,3.14,90.60,020419,,,D*4E
$GPGGA,210400.800,4305.2592,N,07740.7637,W,2,09,1.04,152.4,M,-34.4,M,0000,0000*5D
$GPRMC,210401.000,A,4305.2592,N,07740.7635,W,2.38,90.60,020419,,,D*4A
$GPGGA,210401.200,4305.2592,N,07740.7634,W,2,09,1.04,152.5,M,-34.4,M,0000,0000*54
$GPRMC,210401.400,A,4305.2592,N,07740.7633,W,1.40,90.60,020419,,,D*44
$GPGGA,210401.600,4305.2592,N,07740.7632,W,2,09,1.04,152.5,M,-34.4,M,0000,0000*56
$GPRMC,210401.800,A,4305.2592,N,07740.7632,W,0.50,90.60,020419,,,D*49
$GPGGA,210402.000,4305.2592,N,07740.7632,W,2,09,1.04,152.5,M,-34.4,M,0000,0000*53
$GPRMC,210402.200,A,4305.2592,N,07740.7632,W,0.06,90.60,020419,,,D*43
$GPGGA,210402.400,4305.2592,N,07740.7632,W,2,09,1.04,152.6,M,-34.4,M,0000,0000*54
$GPRMC,210402.600,A,4305.2592,N,07740.7633,W,0.04,90.60,020419,,,D*44
$GPGGA,210402.800,4305.2593,N,07740.7633,W,2,09,1.04,152.6,M,-34.4,M,0000,0000*58
$GPRMC,210403.000,A,4305.2593,N,07740.7633,W,0.02,90.60,020419,,,D*44
$GPGGA,210403.200,4305.2593,N,07740.7634,W,2,09,1.04,152.6,M,-34.4,M,0000,0000*54
$GPRMC,210403.400,A,4305.2593,N,07740.7634,W,0.05,90.60,020419,,,D*40
$GPGGA,210403.600,4305.2593,N,07740.7634,W,2,09,1.04,152.6,M,-34.4,M,0000,0000*50
$GPRMC,210403.800,A,4305.2593,N,07740.7635,W,0.06,90.60,020419,,,D*4E
$GPGGA,210404.000,4305.2593,N,07740.7635,W,2,09,1.04,152.6,M,-34.4,M,0000,0000*50
$GPRMC,210404.200,A,4305.2594,N,07740.7635,W,0.10,90.60,020419,,,D*43
$GPGGA,210404.400,4305.2593,N,07740.7635,W,2,09,1.04,152.6,M,-34.4,M,0000,0000*54
$GPRMC,210404.600,A,4305.2594,N,07740.7636,W,0.37,90.60,020419,,,D*41
$GPGGA,210404.800,4305.2594,N,07740.7635,W,2,09,1.04,152.6,M,-34.4,M,0000,0000*5F
$GPRMC,210405.000,A,4305.2594,N,07740.7635,W,0.26,90.60,020419,,,D*45
$GPGGA,210405.200,4305.2594,N,07740.7635,W,2,09,1.04,152.6,M,-34.4,M,0000,0000*54
$GPRMC,210405.400,A,4305.2594,N,07740.7635,W,0.04,90.60,020419,,,D*41
$GPGGA,210405.600,4305.2594,N,07740.7635,W,2,09,1.04,152.6,M,-34.4,M,0000,0000*50
$GPRMC,210405.800,A,4305.2594,N,07740.7635,W,0.01,90.60,020419,,,D*48
$GPGGA,210406.000,4305.2594,N,07740.7635,W,2,09,1.04,152.6,M,-34.4,M,0000,0000*55
$GPRMC,210406.200,A,4305.2594,N,07740.7635,W,0.02,90.60,020419,,,D*42
$GPGGA,210406.400,4305.2594,N,07740.7635,W,2,09,1.12,152.6,M,-34.4,M,0000,0000*56
$GPRMC,210406.600,A,4305.2594,N,07740.7635,W,0.02,90.60,020419,,,D*46
$GPGGA,210406.800,4305.2594,N,07740.7635,W,2,09,1.04,152.6,M,-34.4,M,0000,0000*5D
$GPRMC,210407.000,A,4305.2594,N,07740.7635,W,0.02,90.60,020419,,,D*41
$GPGGA,210407.200,4305.2594,N,07740.7635,W,2,09,1.04,152.5,M,-34.4,M,0000,0000*55
$GPRMC,210407.400,A,4305.2594,N,07740.7635,W,0.03,90.60,020419,,,D*44
$GPGGA,210407.600,4305.2594,N,07740.7635,W,2,09,1.04,152.5,M,-34.4,M,0000,0000*51
$GPRMC,210407.800,A,4305.2594,N,07740.7635,W,0.05,90.60,020419,,,D*4E
$GPGGA,210408.000,4305.2594,N,07740.7635,W,2,09,1.04,152.5,M,-34.4,M,0000,0000*58
$GPRMC,210408.200,A,4305.2594,N,07740.7635,W,0.02,90.60,020419,,,D*4C
$GPGGA,210408.400,4305.2594,N,07740.7635,W,2,09,1.12,152.5,M,-34.4,M,0000,0000*5B
$GPRMC,210408.600,A,4305.2594,N,07740.7635,W,0.05,90.60,020419,,,D*4F
$GPGGA,210408.800,4305.2593,N,07740.7635,W,2,09,1.04,152.5,M,-34.4,M,0000,0000*57
$GPRMC,210409.000,A,4305.2593,N,07740.7635,W,0.04,90.60,020419,,,D*4E
$GPGGA,210409.200,4305.2593,N,07740.7635,W,2,09,1.04,152.5,M,-34.4,M,0000,0000*5C
$GPRMC,210409.400,A,4305.2593,N,07740.7635,W,0.04,90.60,020419,,,D*4A
$GPGGA,210409.600,4305.2593,N,07740.7635,W,2,09,1.04,152.5,M,-34.4,M,0000,0000*58
$GPRMC,210409.800,A,4305.2593,N,07740.7635,W,0.05,90.60,020419,,,D*47
$GPGGA,210410.000,4305.2593,N,07740.7635,W,2,09,1.04,152.5,M,-34.4,M,0000,0000*56
$GPRMC,210410.200,A,4305.2593,N,07740.7634,W,0.96,90.60,020419,,,D*4E
$GPGGA,210410.400,4305.2593,N,07740.7634,W,2,09,1.04,152.5,M,-34.4,M,0000,0000*53
$GPRMC,210410.600,A,4305.2593,N,07740.7632,W,3.05,88.55,020419,,,D*4A
$GPGGA,210410.800,4305.2593,N,07740.7630,W,2,09,1.04,152.6,M,-34.4,M,0000,0000*58
$GPRMC,210411.000,A,4305.2592,N,07740.7626,W,4.82,89.33,020419,,,D*40
$GPGGA,210411.200,4305.2592,N,07740.7623,W,2,09,1.12,152.6,M,-34.4,M,0000,0000*57
$GPRMC,210411.400,A,4305.2592,N,07740.7618,W,6.57,88.57,020419,,,D*40
$GPGGA,210411.600,4305.2592,N,07740.7613,W,2,09,1.12,152.6,M,-34.4,M,0000,0000*50
$GPRMC,210411.800,A,4305.2592,N,07740.7607,W,8.20,86.65,020419,,,D*43
$GPGGA,210412.000,4305.2592,N,07740.7601,W,2,09,1.12,152.6,M,-34.4,M,0000,0000*56
$GPRMC,210412.200,A,4305.2593,N,07740.7594,W,9.66,83.92,020419,,,D*4C
$GPGGA,210412.400,4305.2594,N,07740.7587,W,2,09,1.12,152.7,M,-34.4,M,0000,0000*58
$GPRMC,210412.600,A,4305.2595,N,07740.7580,W,10.70,78.07,020419,,,D*7C
$GPGGA,210412.800,4305.2596,N,07740.7573,W,2,09,1.12,152.7,M,-34.4,M,0000,0000*5D
$GPRMC,210413.000,A,4305.2598,N,07740.7566,W,11.78,68.82,020419,,,D*7B
$GPGGA,210413.200,4305.2600,N,07740.7557,W,2,09,1.04,152.7,M,-34.4,M,0000,0000*5B
$GPRMC,210413.400,A,4305.2602,N,07740.7549,W,11.77,67.70,020419,,,D*7F
$GPGGA,210413.600,4305.2605,N,07740.7540,W,2,09,1.12,152.7,M,-34.4,M,0000,0000*5B
$GPRMC,210413.800,A,4305.2608,N,07740.7532,W,11.87,62.09,020419,,,D*71
$GPGGA,210414.000,4305.2611,N,07740.7524,W,2,09,1.12,152.7,M,-34.4,M,0000,0000*5D
$GPRMC,210414.200,A,4305.2614,N,07740.7517,W,11.87,57.04,020419,,,D*7D
$GPGGA,210414.400,4305.2618,N,07740.7509,W,2,09,1.04,152.7,M,-34.4,M,0000,0000*58
$GPRMC,210414.600,A,4305.2624,N,07740.7503,W,12.57,46.87,020419,,,D*7A
$GPGGA,210414.800,4305.2629,N,07740.7497,W,2,09,1.04,152.7,M,-34.4,M,0000,0000*50
$GPRMC,210415.000,A,4305.2634,N,07740.7490,W,13.01,41.00,020419,,,D*7D
$GPGGA,210415.200,4305.2640,N,07740.7484,W,2,09,1.04,152.6,M,-34.4,M,0000,0000*57
$GPRMC,210415.400,A,4305.2646,N,07740.7479,W,13.32,36.10,020419,,,D*7A
$GPGGA,210415.600,4305.2652,N,07740.7473,W,2,09,1.04,152.6,M,-34.4,M,0000,0000*58
$GPRMC,210415.800,A,4305.2659,N,07740.7469,W,13.05,30.86,020419,,,D*74
$GPGGA,210416.000,4305.2665,N,07740.7465,W,2,09,1.04,152.6,M,-34.4,M,0000,0000*5E
$GPRMC,210416.200,A,4305.2672,N,07740.7461,W,12.99,25.62,020419,,,D*76
$GPGGA,210416.400,4305.2680,N,07740.7459,W,2,09,1.04,152.5,M,-34.4,M,0000,0000*5D
$GPRMC,210416.600,A,4305.2687,N,07740.7457,W,12.72,17.52,020419,,,D*7A
$GPGGA,210416.800,4305.2695,N,07740.7455,W,2,09,1.04,152.5,M,-34.4,M,0000,0000*59
$GPRMC,210417.000,A,4305.2705,N,07740.7456,W,13.15,11.24,020419,,,D*70
$GPGGA,210417.200,4305.2715,N,07740.7457,W,2,09,1.12,152.5,M,-34.4,M,0000,0000*5E
$GPRMC,210417.400,A,4305.2726,N,07740.7458,W,14.17,7.12,020419,,,D*4C
$GPGGA,210417.600,4305.2738,N,07740.7459,W,2,09,1.12,152.5,M,-34.4,M,0000,0000*5B
$GPRMC,210417.800,A,4305.2750,N,07740.7462,W,15.69,4.39,020419,,,D*4A
$GPGGA,210418.000,4305.2762,N,07740.7464,W,2,09,1.12,152.5,M,-34.4,M,0000,0000*53
$GPRMC,210418.200,A,4305.2775,N,07740.7465,W,17.40,2.72,020419,,,D*4F
$GPGGA,210418.400,4305.2789,N,07740.7467,W,2,09,1.12,152.5,M,-34.4,M,0000,0000*51
$GPRMC,210418.600,A,4305.2803,N,07740.7468,W,19.57,3.19,020419,,,D*4C
$GPGGA,210418.800,4305.2818,N,07740.7470,W,2,09,1.12,152.5,M,-34.4,M,0000,0000*5C
$GPRMC,210419.000,A,4305.2833,N,07740.7472,W,21.89,1.78,020419,,,D*4E
$GPGGA,210419.200,4305.2849,N,07740.7474,W,2,09,1.12,152.5,M,-34.4,M,0000,0000*57
$GPRMC,210419.400,A,4305.2864,N,07740.7475,W,23.31,0.74,020419,,,D*43
$GPGGA,210419.600,4305.2880,N,07740.7476,W,2,09,1.12,152.4,M,-34.4,M,0000,0000*55
$GPRMC,210419.800,A,4305.2895,N,07740.7478,W,24.40,359.95,020419,,,D*4D
$GPGGA,210420.000,4305.2911,N,07740.7479,W,2,09,1.12,152.4,M,-34.4,M,0000,0000*5F
$GPRMC,210420.200,A,4305.2926,N,07740.7480,W,25.03,359.39,020419,,,D*43
$GPGGA,210420.400,4305.2941,N,07740.7481,W,2,09,1.12,152.4,M,-34.4,M,0000,0000*59
$GPRMC,210420.600,A,4305.2956,N,07740.7482,W,25.26,359.23,020419,,,D*4E
$GPGGA,210420.800,4305.2971,N,07740.7483,W,2,09,1.04,152.3,M,-34.4,M,0000,0000*54
$GPRMC,210421.000,A,4305.2986,N,07740.7483,W,25.37,359.13,020419,,,D*46
$GPGGA,210421.200,4305.3000,N,07740.7484,W,2,09,1.12,152.4,M,-34.4,M,0000,0000*56
$GPRMC,210421.400,A,4305.3015,N,07740.7485,W,24.86,359.48,020419,,,D*43
$GPGGA,210421.600,4305.3029,N,07740.7485,W,2,09,1.12,152.4,M,-34.4,M,0000,0000*58
$GPRMC,210421.800,A,4305.3043,N,07740.7486,W,24.83,359.51,020419,,,D*42
$GPGGA,210422.000,4305.3057,N,07740.7486,W,2,09,1.12,152.4,M,-34.4,M,0000,0000*57
$GPRMC,210422.200,A,4305.3071,N,07740.7487,W,24.41,359.37,020419,,,D*45
$GPGGA,210422.400,4305.3085,N,07740.7487,W,2,09,1.12,152.4,M,-34.4,M,0000,0000*5D
$GPRMC,210422.600,A,4305.3099,N,07740.7488,W,24.06,359.34,020419,,,D*48
$GPGGA,210422.800,4305.3112,N,07740.7489,W,2,09,1.12,152.3,M,-34.4,M,0000,0000*57
$GPRMC,210423.000,A,4305.3126,N,07740.7489,W,23.80,359.23,020419,,,D*44
$GPGGA,210423.200,4305.3139,N,07740.7490,W,2,09,1.12,152.3,M,-34.4,M,0000,0000*5D
$GPRMC,210423.400,A,4305.3153,N,07740.7491,W,23.57,358.91,020419,,,D*49
$GPGGA,210423.600,4305.3166,N,07740.7492,W,2,09,1.12,152.3,M,-34.4,M,0000,0000*51
$GPRMC,210423.800,A,4305.3179,N,07740.7492,W,23.08,358.84,020419,,,D*40
$GPGGA,210424.000,4305.3192,N,07740.7493,W,2,09,1.12,152.3,M,-34.4,M,0000,0000*5A
$GPRMC,210424.200,A,4305.3205,N,07740.7494,W,21.71,358.52,020419,,,D*44
$GPGGA,210424.400,4305.3217,N,07740.7495,W,2,09,1.12,152.3,M,-34.4,M,0000,0000*56
$GPRMC,210424.600,A,4305.3228,N,07740.7496,W,19.45,358.55,020419,,,D*46
$GPGGA,210424.800,4305.3239,N,07740.7496,W,2,09,1.12,152.3,M,-34.4,M,0000,0000*55
$GPRMC,210425.000,A,4305.3249,N,07740.7497,W,17.00,358.83,020419,,,D*43
$GPGGA,210425.200,4305.3258,N,07740.7498,W,2,09,1.12,152.3,M,-34.4,M,0000,0000*57
$GPRMC,210425.400,A,4305.3268,N,07740.7499,W,14.45,359.03,020419,,,D*41
$GPGGA,210425.600,4305.3276,N,07740.7501,W,2,09,1.12,152.3,M,-34.4,M,0000,0000*5E
$GPRMC,210425.800,A,4305.3285,N,07740.7502,W,11.91,358.21,020419,,,D*40
$GPGGA,210426.000,4305.3292,N,07740.7503,W,2,09,1.12,152.2,M,-34.4,M,0000,0000*52
$GPRMC,210426.200,A,4305.3299,N,07740.7504,W,10.31,359.71,020419,,,D*4D
$GPGGA,210426.400,4305.3305,N,07740.7504,W,2,09,1.12,152.2,M,-34.4,M,0000,0000*5E
$GPRMC,210426.600,A,4305.3311,N,07740.7505,W,9.52,359.47,020419,,,D*71
$GPGGA,210426.800,4305.3317,N,07740.7506,W,2,09,1.12,152.2,M,-34.4,M,0000,0000*53
$GPRMC,210427.000,A,4305.3323,N,07740.7507,W,9.15,359.26,020419,,,D*71
$GPGGA,210427.200,4305.3328,N,07740.7508,W,2,09,1.12,152.2,M,-34.4,M,0000,0000*5A
$GPRMC,210427.400,A,4305.3333,N,07740.7508,W,8.88,0.32,020419,,,D*74
$GPGGA,210427.600,4305.3339,N,07740.7508,W,2,09,1.12,152.2,M,-34.4,M,0000,0000*5E
$GPRMC,210427.800,A,4305.3344,N,07740.7509,W,8.54,1.30,020419,,,D*7B
$GPGGA,210428.000,4305.3349,N,07740.7509,W,2,09,1.12,152.2,M,-34.4,M,0000,0000*51
$GPRMC,210428.200,A,4305.3353,N,07740.7509,W,8.41,2.10,020419,,,D*7D
$GPGGA,210428.400,4305.3358,N,07740.7508,W,2,08,1.36,152.1,M,-34.4,M,0000,0000*50
$GPRMC,210428.600,A,4305.3363,N,07740.7508,W,8.42,6.59,020419,,,D*71
$GPGGA,210428.800,4305.3368,N,07740.7507,W,2,08,1.37,152.1,M,-34.4,M,0000,0000*51
$GPRMC,210429.000,A,4305.3373,N,07740.7507,W,8.87,7.65,020419,,,D*7F
$GPGGA,210429.200,4305.3378,N,07740.7506,W,2,09,1.12,152.1,M,-34.4,M,0000,0000*5C
$GPRMC,210429.400,A,4305.3382,N,07740.7505,W,8.95,8.77,020419,,,D*78
$GPGGA,210429.600,4305.3387,N,07740.7504,W,2,09,1.12,152.1,M,-34.4,M,0000,0000*5A
$GPRMC,210429.800,A,4305.3392,N,07740.7503,W,9.36,11.23,020419,,,D*42
$GPGGA,210430.000,4305.3397,N,07740.7501,W,2,09,1.12,152.0,M,-34.4,M,0000,0000*51
$GPRMC,210430.200,A,4305.3402,N,07740.7500,W,9.57,16.97,020419,,,D*42
$GPGGA,210430.400,4305.3407,N,07740.7498,W,2,09,1.04,151.9,M,-34.4,M,0000,0000*57
$GPRMC,210430.600,A,4305.3410,N,07740.7494,W,9.34,26.12,020419,,,D*42
$GPGGA,210430.800,4305.3413,N,07740.7490,W,2,09,1.04,151.9,M,-34.4,M,0000,0000*56
$GPRMC,210431.000,A,4305.3417,N,07740.7486,W,9.65,35.98,020419,,,D*45
$GPGGA,210431.200,4305.3421,N,07740.7482,W,2,09,1.04,151.9,M,-34.4,M,0000,0000*5F
$GPRMC,210431.400,A,4305.3425,N,07740.7477,W,10.40,40.29,020419,,,D*79
$GPGGA,210431.600,4305.3429,N,07740.7471,W,2,09,1.04,151.9,M,-34.4,M,0000,0000*5F
$GPRMC,210431.800,A,4305.3433,N,07740.7465,W,10.75,46.77,020419,,,D*7A
$GPGGA,210432.000,4305.3436,N,07740.7460,W,2,09,1.04,151.9,M,-34.4,M,0000,0000*54
$GPRMC,210432.200,A,4305.3440,N,07740.7453,W,11.78,52.38,020419,,,D*70
$GPGGA,210432.400,4305.3444,N,07740.7444,W,2,08,1.10,151.9,M,-34.4,M,0000,0000*57
$GPRMC,210432.600,A,4305.3448,N,07740.7434,W,12.86,57.72,020419,,,D*74
$GPGGA,210432.800,4305.3450,N,07740.7423,W,2,09,1.04,151.9,M,-34.4,M,0000,0000*5B
$GPRMC,210433.000,A,4305.3453,N,07740.7412,W,13.70,64.33,020419,,,D*70
$GPGGA,210433.200,4305.3457,N,07740.7401,W,2,09,1.04,151.9,M,-34.4,M,0000,0000*57
$GPRMC,210433.400,A,4305.3459,N,07740.7390,W,14.07,66.79,020419,,,D*78
$GPGGA,210433.600,4305.3462,N,07740.7378,W,2,09,1.04,151.9,M,-34.4,M,0000,0000*5C
$GPRMC,210433.800,A,4305.3465,N,07740.7365,W,14.80,68.74,020419,,,D*7D
$GPGGA,210434.000,4305.3466,N,07740.7352,W,2,09,1.04,151.9,M,-34.4,M,0000,0000*51
$GPRMC,210434.200,A,4305.3468,N,07740.7337,W,16.03,74.07,020419,,,D*7A
$GPGGA,210434.400,4305.3469,N,07740.7322,W,2,09,1.04,151.9,M,-34.4,M,0000,0000*5D
$GPRMC,210434.600,A,4305.3468,N,07740.7306,W,17.55,80.47,020419,,,D*71
$GPGGA,210434.800,4305.3468,N,07740.7290,W,2,09,1.04,151.9,M,-34.4,M,0000,0000*58
$GPRMC,210435.000,A,4305.3469,N,07740.7274,W,18.48,83.59,020419,,,D*7C
$GPGGA,210435.200,4305.3469,N,07740.7258,W,2,09,1.04,151.9,M,-34.4,M,0000,0000*56
$GPRMC,210435.400,A,4305.3469,N,07740.7242,W,19.47,85.27,020419,,,D*7C
$GPGGA,210435.600,4305.3470,N,07740.7224,W,2,09,1.04,151.8,M,-34.4,M,0000,0000*50
$GPRMC,210435.800,A,4305.3471,N,07740.7205,W,21.01,85.77,020419,,,D*76
$GPGGA,210436.000,4305.3472,N,07740.7186,W,2,09,1.04,151.8,M,-34.4,M,0000,0000*5C
$GPRMC,210436.200,A,4305.3473,N,07740.7168,W,22.21,86.17,020419,,,D*71
$GPGGA,210436.400,4305.3473,N,07740.7148,W,2,09,1.04,151.8,M,-34.4,M,0000,0000*5B
$GPRMC,210436.600,A,4305.3474,N,07740.7128,W,23.71,86.06,020419,,,D*72
$GPGGA,210436.800,4305.3475,N,07740.7108,W,2,09,1.04,151.8,M,-34.4,M,0000,0000*55
$GPRMC,210437.000,A,4305.3476,N,07740.7087,W,24.81,86.00,020419,,,D*7D
$GPGGA,210437.200,4305.3477,N,07740.7067,W,2,09,1.04,151.7,M,-34.4,M,0000,0000*5B
$GPRMC,210437.400,A,4305.3478,N,07740.7046,W,25.77,85.97,020419,,,D*7F
$GPGGA,210437.600,4305.3479,N,07740.7024,W,2,09,1.04,151.7,M,-34.4,M,0000,0000*56
$GPRMC,210437.800,A,4305.3481,N,07740.7002,W,27.01,85.36,020419,,,D*7D
$GPGGA,210438.000,4305.3483,N,07740.6980,W,2,09,1.04,151.7,M,-34.4,M,0000,0000*5C
$GPRMC,210438.200,A,4305.3484,N,07740.6958,W,27.78,85.22,020419,,,D*71
$GPGGA,210438.400,4305.3486,N,07740.6935,W,2,09,1.04,151.7,M,-34.4,M,0000,0000*53
$GPRMC,210438.600,A,4305.3488,N,07740.6912,W,28.45,84.47,020419,,,D*74
$GPGGA,210438.800,4305.3490,N,07740.6889,W,2,09,1.04,151.7,M,-34.4,M,0000,0000*5E
$GPRMC,210439.000,A,4305.3491,N,07740.6866,W,29.12,84.34,020419,,,D*7E
$GPGGA,210439.200,4305.3493,N,07740.6843,W,2,09,1.04,151.7,M,-34.4,M,0000,0000*50
$GPRMC,210439.400,A,4305.3494,N,07740.6819,W,29.34,84.43,020419,,,D*73
$GPGGA,210439.600,4305.3495,N,07740.6796,W,2,09,1.04,151.7,M,-34.4,M,0000,0000*55
$GPRMC,210439.800,A,4305.3497,N,07740.6772,W,29.59,84.39,020419,,,D*78
$GPGGA,210440.000,4305.3497,N,07740.6748,W,2,09,1.04,151.7,M,-34.4,M,0000,0000*5C
$GPRMC,210440.200,A,4305.3498,N,07740.6725,W,29.84,85.38,020419,,,D*71
$GPGGA,210440.400,4305.3499,N,07740.6701,W,2,09,1.04,151.7,M,-34.4,M,0000,0000*5B
$GPRMC,210440.600,A,4305.3500,N,07740.6677,W,30.28,85.83,020419,,,D*7D
$GPGGA,210440.800,4305.3501,N,07740.6653,W,2,09,1.04,151.7,M,-34.4,M,0000,0000*51
$GPRMC,210441.000,A,4305.3502,N,07740.6629,W,30.31,86.11,020419,,,D*73
$GPGGA,210441.200,4305.3502,N,07740.6606,W,2,09,1.04,151.7,M,-34.4,M,0000,0000*59
$GPRMC,210441.400,A,4305.3503,N,07740.6582,W,30.60,86.05,020419,,,D*75
$GPGGA,210441.600,4305.3504,N,07740.6558,W,2,09,1.04,151.8,M,-34.4,M,0000,0000*5C
$GPRMC,210441.800,A,4305.3506,N,07740.6534,W,30.82,85.99,020419,,,D*7B
$GPGGA,210442.000,4305.3507,N,07740.6510,W,2,09,1.04,151.8,M,-34.4,M,0000,0000*56
$GPRMC,210442.200,A,4305.3508,N,07740.6485,W,31.08,86.00,020419,,,D*77
$GPGGA,210442.400,4305.3509,N,07740.6460,W,2,09,1.12,151.8,M,-34.4,M,0000,0000*5D
$GPRMC,210442.600,A,4305.3510,N,07740.6436,W,31.20,86.06,020419,,,D*7E
$GPGGA,210442.800,4305.3512,N,07740.6411,W,2,09,1.12,151.8,M,-34.4,M,0000,0000*5D
$GPRMC,210443.000,A,4305.3513,N,07740.6387,W,31.31,85.69,020419,,,D*7D
$GPGGA,210443.200,4305.3514,N,07740.6363,W,2,09,1.12,151.9,M,-34.4,M,0000,0000*53
$GPRMC,210443.400,A,4305.3516,N,07740.6338,W,31.47,85.28,020419,,,D*7C
$GPGGA,210443.600,4305.3517,N,07740.6314,W,2,09,1.12,151.9,M,-34.4,M,0000,0000*54
$GPRMC,210443.800,A,4305.3518,N,07740.6289,W,31.59,85.86,020419,,,D*7E
$GPGGA,210444.000,4305.3520,N,07740.6264,W,2,09,1.12,151.9,M,-34.4,M,0000,0000*57
$GPRMC,210444.200,A,4305.3521,N,07740.6240,W,31.52,85.85,020419,,,D*74
$GPGGA,210444.400,4305.3523,N,07740.6216,W,2,09,1.12,151.9,M,-34.4,M,0000,0000*55
$GPRMC,210444.600,A,4305.3524,N,07740.6192,W,31.07,85.54,020419,,,D*75
$GPGGA,210444.800,4305.3525,N,07740.6168,W,2,09,1.04,151.9,M,-34.4,M,0000,0000*52
$GPRMC,210445.000,A,4305.3527,N,07740.6144,W,30.99,85.57,020419,,,D*7F
$GPGGA,210445.200,4305.3528,N,07740.6120,W,2,09,1.04,151.9,M,-34.4,M,0000,0000*58
$GPRMC,210445.400,A,4305.3530,N,07740.6096,W,30.75,85.53,020419,,,D*75
$GPGGA,210445.600,4305.3531,N,07740.6073,W,2,08,1.10,151.9,M,-34.4,M,0000,0000*57
$GPRMC,210445.800,A,4305.3533,N,07740.6049,W,30.41,85.61,020419,,,D*7E
$GPGGA,210446.000,4305.3534,N,07740.6026,W,2,08,1.10,151.9,M,-34.4,M,0000,0000*57
$GPRMC,210446.200,A,4305.3536,N,07740.6003,W,30.00,85.69,020419,,,D*71
$GPGGA,210446.400,4305.3537,N,07740.5980,W,2,09,1.04,151.9,M,-34.4,M,0000,0000*52
$GPRMC,210446.600,A,4305.3539,N,07740.5957,W,29.73,85.73,020419,,,D*76
$GPGGA,210446.800,4305.3540,N,07740.5934,W,2,09,1.04,151.9,M,-34.4,M,0000,0000*51
$GPRMC,210447.000,A,4305.3541,N,07740.5912,W,29.45,85.73,020419,,,D*7A
$GPGGA,210447.200,4305.3543,N,07740.5889,W,2,09,1.04,151.9,M,-34.4,M,0000,0000*5E
$GPRMC,210447.400,A,4305.3544,N,07740.5867,W,29.09,85.63,020419,,,D*71
$GPGGA,210447.600,4305.3546,N,07740.5845,W,2,09,1.04,151.9,M,-34.4,M,0000,0000*5F
$GPRMC,210447.800,A,4305.3547,N,07740.5823,W,28.65,85.42,020419,,,D*76
$GPGGA,210448.000,4305.3549,N,07740.5802,W,2,09,1.04,152.0,M,-34.4,M,0000,0000*50
$GPRMC,210448.200,A,4305.3550,N,07740.5780,W,28.42,85.00,020419,,,D*70
$GPGGA,210448.400,4305.3552,N,07740.5758,W,2,09,1.04,152.0,M,-34.4,M,0000,0000*5E
$GPRMC,210448.600,A,4305.3553,N,07740.5737,W,28.19,85.30,020419,,,D*76
$GPGGA,210448.800,4305.3554,N,07740.5716,W,2,09,1.04,152.0,M,-34.4,M,0000,0000*5E
$GPRMC,210449.000,A,4305.3556,N,07740.5695,W,27.61,85.49,020419,,,D*73
$GPGGA,210449.200,4305.3557,N,07740.5674,W,2,09,1.04,152.1,M,-34.4,M,0000,0000*52
$GPRMC,210449.400,A,4305.3558,N,07740.5653,W,27.51,85.77,020419,,,D*7D
$GPGGA,210449.600,4305.3560,N,07740.5632,W,2,09,1.04,152.1,M,-34.4,M,0000,0000*50
$GPRMC,210449.800,A,4305.3561,N,07740.5612,W,27.11,85.99,020419,,,D*7A
$GPGGA,210450.000,4305.3562,N,07740.5592,W,2,09,1.04,152.1,M,-34.4,M,0000,0000*55
$GPRMC,210450.200,A,4305.3563,N,07740.5571,W,26.78,85.93,020419,,,D*78
$GPGGA,210450.400,4305.3565,N,07740.5551,W,2,09,1.04,152.2,M,-34.4,M,0000,0000*5A
$GPRMC,210450.600,A,4305.3566,N,07740.5531,W,26.37,85.79,020419,,,D*72
$GPGGA,210450.800,4305.3567,N,07740.5511,W,2,09,1.04,152.2,M,-34.4,M,0000,0000*50
$GPRMC,210451.000,A,4305.3568,N,07740.5492,W,25.56,85.65,020419,,,D*7A
$GPGGA,210451.200,4305.3570,N,07740.5473,W,2,09,1.04,152.2,M,-34.4,M,0000,0000*58
$GPRMC,210451.400,A,4305.3571,N,07740.5455,W,24.72,85.82,020419,,,D*73
$GPGGA,210451.600,4305.3572,N,07740.5437,W,2,09,1.04,152.3,M,-34.4,M,0000,0000*5F
$GPRMC,210451.800,A,4305.3573,N,07740.5419,W,24.10,85.22,020419,,,D*7B
$GPGGA,210452.000,4305.3575,N,07740.5401,W,2,09,1.04,152.4,M,-34.4,M,0000,0000*5F
$GPRMC,210452.200,A,4305.3576,N,07740.5384,W,23.42,84.87,020419,,,D*7A
$GPGGA,210452.400,4305.3576,N,07740.5367,W,2,09,1.04,152.5,M,-34.4,M,0000,0000*5E
$GPRMC,210452.600,A,4305.3576,N,07740.5349,W,22.39,84.57,020419,,,D*7F
$GPGGA,210452.800,4305.3573,N,07740.5334,W,2,09,1.04,152.9,M,-34.4,M,0000,0000*5D
$GPRMC,210453.000,A,4305.3571,N,07740.5318,W,20.96,88.83,020419,,,D*79
$GPGGA,210453.200,4305.3569,N,07740.5301,W,2,09,1.04,153.3,M,-34.4,M,0000,0000*50
$GPRMC,210453.400,A,4305.3568,N,07740.5285,W,20.68,90.10,020419,,,D*72
$GPGGA,210453.600,4305.3567,N,07740.5270,W,2,09,1.04,153.5,M,-34.4,M,0000,0000*5B
$GPRMC,210453.800,A,4305.3565,N,07740.5256,W,20.16,92.48,020419,,,D*7B
$GPGGA,210454.000,4305.3563,N,07740.5241,W,2,09,1.04,153.7,M,-34.4,M,0000,0000*5E
$GPRMC,210454.200,A,4305.3560,N,07740.5227,W,19.59,95.91,020419,,,D*77
$GPGGA,210454.400,4305.3557,N,07740.5214,W,2,09,1.04,153.8,M,-34.4,M,0000,0000*52
$GPRMC,210454.600,A,4305.3552,N,07740.5202,W,18.32,102.83,020419,,,D*45
$GPGGA,210454.800,4305.3547,N,07740.5189,W,2,09,1.04,154.0,M,-34.4,M,0000,0000*57
$GPRMC,210455.000,A,4305.3541,N,07740.5178,W,18.03,109.95,020419,,,D*40
$GPGGA,210455.200,4305.3534,N,07740.5167,W,2,09,1.04,154.1,M,-34.4,M,0000,0000*59
$GPRMC,210455.400,A,4305.3528,N,07740.5157,W,17.79,117.39,020419,,,D*4D
$GPGGA,210455.600,4305.3520,N,07740.5147,W,2,09,1.04,154.3,M,-34.4,M,0000,0000*58
$GPRMC,210455.800,A,4305.3512,N,07740.5139,W,17.21,127.23,020419,,,D*45
$GPGGA,210456.000,4305.3505,N,07740.5129,W,2,09,1.04,154.5,M,-34.4,M,0000,0000*54
$GPRMC,210456.200,A,4305.3499,N,07740.5119,W,17.58,129.97,020419,,,D*43
$GPGGA,210456.400,4305.3492,N,07740.5107,W,2,09,1.04,154.6,M,-34.4,M,0000,0000*50
$GPRMC,210456.600,A,4305.3483,N,07740.5099,W,17.64,133.53,020419,,,D*49
$GPGGA,210456.800,4305.3471,N,07740.5093,W,2,09,1.04,154.7,M,-34.4,M,0000,0000*5C
$GPRMC,210457.000,A,4305.3458,N,07740.5087,W,17.32,140.85,020419,,,D*4B
$GPGGA,210457.200,4305.3446,N,07740.5083,W,2,09,1.04,154.9,M,-34.4,M,0000,0000*5C
$GPRMC,210457.400,A,4305.3435,N,07740.5078,W,17.06,146.74,020419,,,D*4B
$GPGGA,210457.600,4305.3425,N,07740.5074,W,2,09,1.04,155.0,M,-34.4,M,0000,0000*5D
$GPRMC,210457.800,A,4305.3414,N,07740.5070,W,17.03,151.83,020419,,,D*47
$GPGGA,210458.000,4305.3403,N,07740.5067,W,2,09,1.04,155.1,M,-34.4,M,0000,0000*53
$GPRMC,210458.200,A,4305.3391,N,07740.5064,W,17.61,157.36,020419,,,D*41
$GPGGA,210458.400,4305.3378,N,07740.5063,W,2,09,1.04,155.2,M,-34.4,M,0000,0000*5B
$GPRMC,210458.600,A,4305.3362,N,07740.5064,W,19.30,166.32,020419,,,D*45
$GPGGA,210458.800,4305.3346,N,07740.5066,W,2,09,1.04,155.3,M,-34.4,M,0000,0000*5E
$GPRMC,210459.000,A,4305.3331,N,07740.5067,W,21.48,173.71,020419,,,D*40
$GPGGA,210459.200,4305.3318,N,07740.5068,W,2,09,1.04,155.4,M,-34.4,M,0000,0000*57
$GPRMC,210459.400,A,4305.3304,N,07740.5067,W,22.27,175.29,020419,,,D*43
$GPGGA,210459.600,4305.3289,N,07740.5066,W,2,09,1.04,155.5,M,-34.4,M,0000,0000*55
$GPRMC,210459.800,A,4305.3275,N,07740.5066,W,23.05,175.64,020419,,,D*41
$GPGGA,210500.000,4305.3261,N,07740.5065,W,2,09,1.12,155.6,M,-34.4,M,0000,0000*5F
$GPRMC,210500.200,A,4305.3248,N,07740.5064,W,22.97,174.43,020419,,,D*44
$GPGGA,210500.400,4305.3234,N,07740.5063,W,2,08,1.22,155.6,M,-34.4,M,0000,0000*5F
$GPRMC,210500.600,A,4305.3221,N,07740.5062,W,22.70,172.00,020419,,,D*41
$GPGGA,210500.800,4305.3208,N,07740.5060,W,2,09,1.12,155.7,M,-34.4,M,0000,0000*5C
$GPRMC,210501.000,A,4305.3195,N,07740.5057,W,22.31,169.35,020419,,,D*45
$GPGGA,210501.200,4305.3181,N,07740.5055,W,2,09,1.12,155.9,M,-34.4,M,0000,0000*5D
$GPRMC,210501.400,A,4305.3168,N,07740.5052,W,22.24,165.41,020419,,,D*4D
$GPGGA,210501.600,4305.3155,N,07740.5048,W,2,09,1.12,155.9,M,-34.4,M,0000,0000*5C
$GPRMC,210501.800,A,4305.3143,N,07740.5043,W,21.82,160.92,020419,,,D*4C
$GPGGA,210502.000,4305.3131,N,07740.5037,W,2,09,1.12,155.9,M,-34.4,M,0000,0000*53
$GPRMC,210502.200,A,4305.3119,N,07740.5031,W,22.54,157.71,020419,,,D*4E
$GPGGA,210502.400,4305.3108,N,07740.5024,W,2,09,1.12,156.0,M,-34.4,M,0000,0000*55
$GPRMC,210502.600,A,4305.3097,N,07740.5016,W,22.50,154.28,020419,,,D*43
$GPGGA,210502.800,4305.3085,N,07740.5009,W,2,09,1.12,156.1,M,-34.4,M,0000,0000*53
$GPRMC,210503.000,A,4305.3074,N,07740.5000,W,23.03,150.51,020419,,,D*43
$GPGGA,210503.200,4305.3063,N,07740.4991,W,2,09,1.04,156.2,M,-34.4,M,0000,0000*5D
$GPRMC,210503.400,A,4305.3052,N,07740.4982,W,23.17,147.91,020419,,,D*4E
$GPGGA,210503.600,4305.3042,N,07740.4972,W,2,09,1.04,156.2,M,-34.4,M,0000,0000*57
$GPRMC,210503.800,A,4305.3031,N,07740.4962,W,22.86,145.97,020419,,,D*44
$GPGGA,210504.000,4305.3022,N,07740.4952,W,2,09,1.04,156.2,M,-34.4,M,0000,0000*52
$GPRMC,210504.200,A,4305.3013,N,07740.4941,W,22.16,141.83,020419,,,D*40
$GPGGA,210504.400,4305.3004,N,07740.4930,W,2,09,1.04,156.1,M,-34.4,M,0000,0000*55
$GPRMC,210504.600,A,4305.2995,N,07740.4918,W,21.96,138.70,020419,,,D*47
$GPGGA,210504.800,4305.2987,N,07740.4906,W,2,09,1.04,156.1,M,-34.4,M,0000,0000*5F
$GPRMC,210505.000,A,4305.2980,N,07740.4893,W,21.88,134.58,020419,,,D*4F
$GPGGA,210505.200,4305.2972,N,07740.4880,W,2,09,1.04,156.0,M,-34.4,M,0000,0000*50
$GPRMC,210505.400,A,4305.2965,N,07740.4867,W,21.79,131.34,020419,,,D*4A
$GPGGA,210505.600,4305.2958,N,07740.4854,W,2,09,1.04,156.0,M,-34.4,M,0000,0000*55
$GPRMC,210505.800,A,4305.2952,N,07740.4841,W,21.59,128.05,020419,,,D*4E
$GPGGA,210506.000,4305.2947,N,07740.4826,W,2,09,1.04,156.0,M,-34.4,M,0000,0000*5B
$GPRMC,210506.200,A,4305.2942,N,07740.4813,W,21.53,123.49,020419,,,D*48
$GPGGA,210506.400,4305.2938,N,07740.4797,W,2,09,1.04,155.9,M,-34.4,M,0000,0000*58
$GPRMC,210506.600,A,4305.2936,N,07740.4782,W,21.47,114.43,020419,,,D*43
$GPGGA,210506.800,4305.2932,N,07740.4767,W,2,09,1.04,155.9,M,-34.4,M,0000,0000*51
$GPRMC,210507.000,A,4305.2928,N,07740.4752,W,20.73,111.17,020419,,,D*44
$GPGGA,210507.200,4305.2926,N,07740.4737,W,2,09,1.04,155.9,M,-34.4,M,0000,0000*5A
$GPRMC,210507.400,A,4305.2924,N,07740.4721,W,20.75,105.60,020419,,,D*4B
$GPGGA,210507.600,4305.2923,N,07740.4706,W,2,09,1.04,156.0,M,-34.4,M,0000,0000*53
$GPRMC,210507.800,A,4305.2922,N,07740.4690,W,20.32,101.25,020419,,,D*4C
$GPGGA,210508.000,4305.2922,N,07740.4674,W,2,09,1.04,156.0,M,-34.4,M,0000,0000*5F
$GPRMC,210508.200,A,4305.2922,N,07740.4658,W,20.59,97.11,020419,,,D*79
$GPGGA,210508.400,4305.2923,N,07740.4642,W,2,09,1.04,156.1,M,-34.4,M,0000,0000*5E
$GPRMC,210508.600,A,4305.2927,N,07740.4622,W,21.82,90.07,020419,,,D*72
$GPGGA,210508.800,4305.2929,N,07740.4606,W,2,09,1.04,156.1,M,-34.4,M,0000,0000*58
$GPRMC,210509.000,A,4305.2931,N,07740.4590,W,21.56,86.02,020419,,,D*73
$GPGGA,210509.200,4305.2934,N,07740.4573,W,2,09,1.04,156.2,M,-34.4,M,0000,0000*5D
$GPRMC,210509.400,A,4305.2939,N,07740.4557,W,21.91,80.97,020419,,,D*75
$GPGGA,210509.600,4305.2943,N,07740.4541,W,2,09,1.04,156.3,M,-34.4,M,0000,0000*59
$GPRMC,210509.800,A,4305.2947,N,07740.4525,W,22.35,76.89,020419,,,D*7E
$GPGGA,210510.000,4305.2952,N,07740.4509,W,2,09,1.04,156.3,M,-34.4,M,0000,0000*5B
$GPRMC,210510.200,A,4305.2957,N,07740.4494,W,22.35,74.17,020419,,,D*73
$GPGGA,210510.400,4305.2962,N,07740.4478,W,2,09,1.04,156.3,M,-34.4,M,0000,0000*5B
$GPRMC,210510.600,A,4305.2968,N,07740.4464,W,22.31,70.91,020419,,,D*7A
$GPGGA,210510.800,4305.2975,N,07740.4449,W,2,09,1.04,156.3,M,-34.4,M,0000,0000*53
$GPRMC,210511.000,A,4305.2982,N,07740.4434,W,22.37,67.38,020419,,,D*7F
$GPGGA,210511.200,4305.2989,N,07740.4419,W,2,09,1.04,156.2,M,-34.4,M,0000,0000*5F
$GPRMC,210511.400,A,4305.2997,N,07740.4406,W,22.42,63.75,020419,,,D*71
$GPGGA,210511.600,4305.3007,N,07740.4393,W,2,09,1.04,156.1,M,-34.4,M,0000,0000*53
$GPRMC,210511.800,A,4305.3017,N,07740.4380,W,22.98,58.89,020419,,,D*78
$GPGGA,210512.000,4305.3027,N,07740.4368,W,2,09,1.04,156.1,M,-34.4,M,0000,0000*50
$GPRMC,210512.200,A,4305.3036,N,07740.4356,W,22.55,55.17,020419,,,D*72
$GPGGA,210512.400,4305.3046,N,07740.4345,W,2,09,1.04,156.0,M,-34.4,M,0000,0000*5D
$GPRMC,210512.600,A,4305.3056,N,07740.4333,W,22.44,51.93,020419,,,D*7B
$GPGGA,210512.800,4305.3067,N,07740.4322,W,2,09,1.04,155.9,M,-34.4,M,0000,0000*59
$GPRMC,210513.000,A,4305.3081,N,07740.4315,W,22.10,46.44,020419,,,D*7F
$GPGGA,210513.200,4305.3094,N,07740.4307,W,2,09,1.04,155.8,M,-34.4,M,0000,0000*58
$GPRMC,210513.400,A,4305.3107,N,07740.4301,W,21.44,40.62,020419,,,D*71
$GPGGA,210513.600,4305.3120,N,07740.4294,W,2,09,1.12,155.7,M,-34.4,M,0000,0000*51
$GPRMC,210513.800,A,4305.3137,N,07740.4291,W,21.34,32.85,020419,,,D*7D
$GPGGA,210514.000,4305.3150,N,07740.4286,W,2,09,1.12,155.6,M,-34.4,M,0000,0000*55
$GPRMC,210514.200,A,4305.3170,N,07740.4288,W,21.28,23.65,020419,,,D*78
$GPGGA,210514.400,4305.3186,N,07740.4289,W,2,09,1.12,155.5,M,-34.4,M,0000,0000*56
$GPRMC,210514.600,A,4305.3206,N,07740.4293,W,21.57,12.47,020419,,,D*7E
$GPGGA,210514.800,4305.3222,N,07740.4294,W,2,09,1.12,155.4,M,-34.4,M,0000,0000*5A
$GPRMC,210515.000,A,4305.3242,N,07740.4298,W,22.92,5.45,020419,,,D*4C
$GPGGA,210515.200,4305.3262,N,07740.4300,W,2,08,1.15,155.3,M,-34.4,M,0000,0000*58
$GPRMC,210515.400,A,4305.3281,N,07740.4304,W,24.78,1.10,020419,,,D*45
